{
    "companies": [
        {
            "name": "Company Name 2",
            "address": "Company Address 2",
            "phone": "Company Phone 2",
            "city": "Company City 2",
            "state": "Company State",
            "location": {
                "latitude": "Company Latitude",
                "longitude": "Company Longitude"
            },
            "description": "Company Description",
            "coverImage": "image1.jpg",
            "images": [
                "image1.jpg",
                "image2.jpg"
            ],
            "category": "Company Category 3",
            "subCategory": "Food & Beverage"
        },
        {
            "name": "Company Name",
            "address": "Company Address",
            "phone": "Company Phone",
            "city": "Company City",
            "state": "Company State",
            "location": {
                "latitude": "Company Latitude",
                "longitude": "Company Longitude"
            },
            "description": "Company Description",
            "coverImage": "image1.jpg",
            "images": [
                "image1.jpg",
                "image2.jpg"
            ],
            "category": "Company Category 3",
            "subCategory": "Food & Beverage"
        },
        {
            "name": "Another Company Name",
            "address": "Another Company Address",
            "phone": "Another Company Phone",
            "location": {
                "latitude": "Another Company Latitude",
                "longitude": "Another Company Longitude"
            },
            "city": "Another Company City",
            "state": "Another Company State",
            "description": "Another Company Description",
            "coverImage": "image3.jpg",
            "images": [
                "image3.jpg",
                "image4.jpg"
            ],
            "category": "Company Category 3",
            "subCategory": "Food & Beverage"
        }
    ]
}